{
  "type": "FeatureCollection",
  "features": [
    {
      "type": "Feature",
      "geometry": {
        "type": "Point",
        "coordinates": [
          139.6917,
          35.6895
        ]
      },
      "properties": {
        "city": "Tokyo",
        "country": "Japan",
        "population": 37400068
      }
    },
    {
      "type": "Feature",
      "geometry": {
        "type": "Point",
        "coordinates": [
          77.1025,
          28.7041
        ]
      },
      "properties": {
        "city": "Delhi",
        "country": "India",
        "population": 29399141
      }
    },
    {
      "type": "Feature",
      "geometry": {
        "type": "Point",
        "coordinates": [
          121.4737,
          31.2304
        ]
      },
      "properties": {
        "city": "Shanghai",
        "country": "China",
        "population": 26317104
      }
    },
    {
      "type": "Feature",
      "geometry": {
        "type": "Point",
        "coordinates": [
          -46.6333,
          -23.5505
        ]
      },
      "properties": {
        "city": "São Paulo",
        "country": "Brazil",
        "population": 21846507
      }
    },
    {
      "type": "Feature",
      "geometry": {
        "type": "Point",
        "coordinates": [
          -99.1332,
          19.4326
        ]
      },
      "properties": {
        "city": "Mexico City",
        "country": "Mexico",
        "population": 21671908
      }
    },
    {
      "type": "Feature",
      "geometry": {
        "type": "Point",
        "coordinates": [
          31.2357,
          30.0444
        ]
      },
      "properties": {
        "city": "Cairo",
        "country": "Egypt",
        "population": 20484965
      }
    },
    {
      "type": "Feature",
      "geometry": {
        "type": "Point",
        "coordinates": [
          90.4125,
          23.8103
        ]
      },
      "properties": {
        "city": "Dhaka",
        "country": "Bangladesh",
        "population": 20283552
      }
    },
    {
      "type": "Feature",
      "geometry": {
        "type": "Point",
        "coordinates": [
          72.8777,
          19.076
        ]
      },
      "properties": {
        "city": "Mumbai",
        "country": "India",
        "population": 20185064
      }
    },
    {
      "type": "Feature",
      "geometry": {
        "type": "Point",
        "coordinates": [
          116.4074,
          39.9042
        ]
      },
      "properties": {
        "city": "Beijing",
        "country": "China",
        "population": 20035455
      }
    },
    {
      "type": "Feature",
      "geometry": {
        "type": "Point",
        "coordinates": [
          135.5023,
          34.6937
        ]
      },
      "properties": {
        "city": "Osaka",
        "country": "Japan",
        "population": 19222665
      }
    },
    {
      "type": "Feature",
      "geometry": {
        "type": "Point",
        "coordinates": [
          -74.006,
          40.7128
        ]
      },
      "properties": {
        "city": "New York City",
        "country": "USA",
        "population": 18819000
      }
    },
    {
      "type": "Feature",
      "geometry": {
        "type": "Point",
        "coordinates": [
          67.0011,
          24.8607
        ]
      },
      "properties": {
        "city": "Karachi",
        "country": "Pakistan",
        "population": 16459400
      }
    },
    {
      "type": "Feature",
      "geometry": {
        "type": "Point",
        "coordinates": [
          -58.3816,
          -34.6037
        ]
      },
      "properties": {
        "city": "Buenos Aires",
        "country": "Argentina",
        "population": 16157000
      }
    },
    {
      "type": "Feature",
      "geometry": {
        "type": "Point",
        "coordinates": [
          106.9123,
          29.4316
        ]
      },
      "properties": {
        "city": "Chongqing",
        "country": "China",
        "population": 15872000
      }
    },
    {
      "type": "Feature",
      "geometry": {
        "type": "Point",
        "coordinates": [
          28.9784,
          41.0082
        ]
      },
      "properties": {
        "city": "Istanbul",
        "country": "Turkey",
        "population": 15462452
      }
    },
    {
      "type": "Feature",
      "geometry": {
        "type": "Point",
        "coordinates": [
          88.3639,
          22.5726
        ]
      },
      "properties": {
        "city": "Kolkata",
        "country": "India",
        "population": 14974000
      }
    },
    {
      "type": "Feature",
      "geometry": {
        "type": "Point",
        "coordinates": [
          120.9842,
          14.5995
        ]
      },
      "properties": {
        "city": "Manila",
        "country": "Philippines",
        "population": 13923452
      }
    },
    {
      "type": "Feature",
      "geometry": {
        "type": "Point",
        "coordinates": [
          3.3792,
          6.5244
        ]
      },
      "properties": {
        "city": "Lagos",
        "country": "Nigeria",
        "population": 13900000
      }
    },
    {
      "type": "Feature",
      "geometry": {
        "type": "Point",
        "coordinates": [
          -43.1729,
          -22.9068
        ]
      },
      "properties": {
        "city": "Rio de Janeiro",
        "country": "Brazil",
        "population": 13458000
      }
    },
    {
      "type": "Feature",
      "geometry": {
        "type": "Point",
        "coordinates": [
          117.3616,
          39.3434
        ]
      },
      "properties": {
        "city": "Tianjin",
        "country": "China",
        "population": 13245000
      }
    },
    {
      "type": "Feature",
      "geometry": {
        "type": "Point",
        "coordinates": [
          15.2663,
          -4.4419
        ]
      },
      "properties": {
        "city": "Kinshasa",
        "country": "DR Congo",
        "population": 13035000
      }
    },
    {
      "type": "Feature",
      "geometry": {
        "type": "Point",
        "coordinates": [
          113.2644,
          23.1291
        ]
      },
      "properties": {
        "city": "Guangzhou",
        "country": "China",
        "population": 12700800
      }
    },
    {
      "type": "Feature",
      "geometry": {
        "type": "Point",
        "coordinates": [
          -118.2437,
          34.0522
        ]
      },
      "properties": {
        "city": "Los Angeles",
        "country": "USA",
        "population": 12750807
      }
    },
    {
      "type": "Feature",
      "geometry": {
        "type": "Point",
        "coordinates": [
          37.6173,
          55.7558
        ]
      },
      "properties": {
        "city": "Moscow",
        "country": "Russia",
        "population": 12506468
      }
    },
    {
      "type": "Feature",
      "geometry": {
        "type": "Point",
        "coordinates": [
          114.0579,
          22.5431
        ]
      },
      "properties": {
        "city": "Shenzhen",
        "country": "China",
        "population": 12528300
      }
    },
    {
      "type": "Feature",
      "geometry": {
        "type": "Point",
        "coordinates": [
          74.3587,
          31.5204
        ]
      },
      "properties": {
        "city": "Lahore",
        "country": "Pakistan",
        "population": 12188000
      }
    },
    {
      "type": "Feature",
      "geometry": {
        "type": "Point",
        "coordinates": [
          77.5946,
          12.9716
        ]
      },
      "properties": {
        "city": "Bangalore",
        "country": "India",
        "population": 11920000
      }
    },
    {
      "type": "Feature",
      "geometry": {
        "type": "Point",
        "coordinates": [
          2.3522,
          48.8566
        ]
      },
      "properties": {
        "city": "Paris",
        "country": "France",
        "population": 11020000
      }
    },
    {
      "type": "Feature",
      "geometry": {
        "type": "Point",
        "coordinates": [
          -74.0721,
          4.711
        ]
      },
      "properties": {
        "city": "Bogotá",
        "country": "Colombia",
        "population": 10740000
      }
    },
    {
      "type": "Feature",
      "geometry": {
        "type": "Point",
        "coordinates": [
          106.8456,
          -6.2088
        ]
      },
      "properties": {
        "city": "Jakarta",
        "country": "Indonesia",
        "population": 10562000
      }
    },
    {
      "type": "Feature",
      "geometry": {
        "type": "Point",
        "coordinates": [
          80.2707,
          13.0827
        ]
      },
      "properties": {
        "city": "Chennai",
        "country": "India",
        "population": 10470000
      }
    },
    {
      "type": "Feature",
      "geometry": {
        "type": "Point",
        "coordinates": [
          -77.0428,
          -12.0464
        ]
      },
      "properties": {
        "city": "Lima",
        "country": "Peru",
        "population": 10320000
      }
    },
    {
      "type": "Feature",
      "geometry": {
        "type": "Point",
        "coordinates": [
          100.5018,
          13.7563
        ]
      },
      "properties": {
        "city": "Bangkok",
        "country": "Thailand",
        "population": 10539000
      }
    },
    {
      "type": "Feature",
      "geometry": {
        "type": "Point",
        "coordinates": [
          126.978,
          37.5665
        ]
      },
      "properties": {
        "city": "Seoul",
        "country": "South Korea",
        "population": 9963000
      }
    },
    {
      "type": "Feature",
      "geometry": {
        "type": "Point",
        "coordinates": [
          136.9066,
          35.1815
        ]
      },
      "properties": {
        "city": "Nagoya",
        "country": "Japan",
        "population": 9507000
      }
    },
    {
      "type": "Feature",
      "geometry": {
        "type": "Point",
        "coordinates": [
          78.4867,
          17.385
        ]
      },
      "properties": {
        "city": "Hyderabad",
        "country": "India",
        "population": 9482000
      }
    },
    {
      "type": "Feature",
      "geometry": {
        "type": "Point",
        "coordinates": [
          -0.1278,
          51.5074
        ]
      },
      "properties": {
        "city": "London",
        "country": "UK",
        "population": 9304000
      }
    },
    {
      "type": "Feature",
      "geometry": {
        "type": "Point",
        "coordinates": [
          51.389,
          35.6892
        ]
      },
      "properties": {
        "city": "Tehran",
        "country": "Iran",
        "population": 8847000
      }
    },
    {
      "type": "Feature",
      "geometry": {
        "type": "Point",
        "coordinates": [
          -87.6298,
          41.8781
        ]
      },
      "properties": {
        "city": "Chicago",
        "country": "USA",
        "population": 8675982
      }
    },
    {
      "type": "Feature",
      "geometry": {
        "type": "Point",
        "coordinates": [
          104.0668,
          30.5728
        ]
      },
      "properties": {
        "city": "Chengdu",
        "country": "China",
        "population": 8270000
      }
    },
    {
      "type": "Feature",
      "geometry": {
        "type": "Point",
        "coordinates": [
          118.7969,
          32.0603
        ]
      },
      "properties": {
        "city": "Nanjing",
        "country": "China",
        "population": 8270500
      }
    },
    {
      "type": "Feature",
      "geometry": {
        "type": "Point",
        "coordinates": [
          114.3055,
          30.5928
        ]
      },
      "properties": {
        "city": "Wuhan",
        "country": "China",
        "population": 8200000
      }
    },
    {
      "type": "Feature",
      "geometry": {
        "type": "Point",
        "coordinates": [
          106.6297,
          10.8231
        ]
      },
      "properties": {
        "city": "Ho Chi Minh City",
        "country": "Vietnam",
        "population": 8426000
      }
    },
    {
      "type": "Feature",
      "geometry": {
        "type": "Point",
        "coordinates": [
          13.2894,
          -8.839
        ]
      },
      "properties": {
        "city": "Luanda",
        "country": "Angola",
        "population": 8417000
      }
    },
    {
      "type": "Feature",
      "geometry": {
        "type": "Point",
        "coordinates": [
          72.5714,
          23.0225
        ]
      },
      "properties": {
        "city": "Ahmedabad",
        "country": "India",
        "population": 8009000
      }
    },
    {
      "type": "Feature",
      "geometry": {
        "type": "Point",
        "coordinates": [
          101.6869,
          3.139
        ]
      },
      "properties": {
        "city": "Kuala Lumpur",
        "country": "Malaysia",
        "population": 7903000
      }
    },
    {
      "type": "Feature",
      "geometry": {
        "type": "Point",
        "coordinates": [
          108.9398,
          34.3416
        ]
      },
      "properties": {
        "city": "Xi'an",
        "country": "China",
        "population": 7744000
      }
    },
    {
      "type": "Feature",
      "geometry": {
        "type": "Point",
        "coordinates": [
          114.1694,
          22.3193
        ]
      },
      "properties": {
        "city": "Hong Kong",
        "country": "China",
        "population": 7482500
      }
    },
    {
      "type": "Feature",
      "geometry": {
        "type": "Point",
        "coordinates": [
          113.7518,
          23.0207
        ]
      },
      "properties": {
        "city": "Dongguan",
        "country": "China",
        "population": 7287000
      }
    },
    {
      "type": "Feature",
      "geometry": {
        "type": "Point",
        "coordinates": [
          120.1551,
          30.2741
        ]
      },
      "properties": {
        "city": "Hangzhou",
        "country": "China",
        "population": 7236000
      }
    },
    {
      "type": "Feature",
      "geometry": {
        "type": "Point",
        "coordinates": [
          113.1214,
          23.0215
        ]
      },
      "properties": {
        "city": "Foshan",
        "country": "China",
        "population": 7200000
      }
    },
    {
      "type": "Feature",
      "geometry": {
        "type": "Point",
        "coordinates": [
          123.4315,
          41.8057
        ]
      },
      "properties": {
        "city": "Shenyang",
        "country": "China",
        "population": 7200000
      }
    },
    {
      "type": "Feature",
      "geometry": {
        "type": "Point",
        "coordinates": [
          46.6753,
          24.7136
        ]
      },
      "properties": {
        "city": "Riyadh",
        "country": "Saudi Arabia",
        "population": 6881000
      }
    },
    {
      "type": "Feature",
      "geometry": {
        "type": "Point",
        "coordinates": [
          44.3661,
          33.3152
        ]
      },
      "properties": {
        "city": "Baghdad",
        "country": "Iraq",
        "population": 6812000
      }
    },
    {
      "type": "Feature",
      "geometry": {
        "type": "Point",
        "coordinates": [
          -70.6693,
          -33.4489
        ]
      },
      "properties": {
        "city": "Santiago",
        "country": "Chile",
        "population": 6681000
      }
    },
    {
      "type": "Feature",
      "geometry": {
        "type": "Point",
        "coordinates": [
          72.8311,
          21.1702
        ]
      },
      "properties": {
        "city": "Surat",
        "country": "India",
        "population": 6564000
      }
    },
    {
      "type": "Feature",
      "geometry": {
        "type": "Point",
        "coordinates": [
          -3.7038,
          40.4168
        ]
      },
      "properties": {
        "city": "Madrid",
        "country": "Spain",
        "population": 6642000
      }
    },
    {
      "type": "Feature",
      "geometry": {
        "type": "Point",
        "coordinates": [
          120.5853,
          31.2989
        ]
      },
      "properties": {
        "city": "Suzhou",
        "country": "China",
        "population": 6557000
      }
    },
    {
      "type": "Feature",
      "geometry": {
        "type": "Point",
        "coordinates": [
          73.8567,
          18.5204
        ]
      },
      "properties": {
        "city": "Pune",
        "country": "India",
        "population": 6375000
      }
    },
    {
      "type": "Feature",
      "geometry": {
        "type": "Point",
        "coordinates": [
          126.5349,
          45.8038
        ]
      },
      "properties": {
        "city": "Harbin",
        "country": "China",
        "population": 6115000
      }
    },
    {
      "type": "Feature",
      "geometry": {
        "type": "Point",
        "coordinates": [
          -95.3698,
          29.7604
        ]
      },
      "properties": {
        "city": "Houston",
        "country": "USA",
        "population": 6115000
      }
    },
    {
      "type": "Feature",
      "geometry": {
        "type": "Point",
        "coordinates": [
          -96.797,
          32.7767
        ]
      },
      "properties": {
        "city": "Dallas",
        "country": "USA",
        "population": 5744000
      }
    },
    {
      "type": "Feature",
      "geometry": {
        "type": "Point",
        "coordinates": [
          -79.3832,
          43.6532
        ]
      },
      "properties": {
        "city": "Toronto",
        "country": "Canada",
        "population": 6313000
      }
    },
    {
      "type": "Feature",
      "geometry": {
        "type": "Point",
        "coordinates": [
          -80.1918,
          25.7617
        ]
      },
      "properties": {
        "city": "Miami",
        "country": "USA",
        "population": 6100000
      }
    },
    {
      "type": "Feature",
      "geometry": {
        "type": "Point",
        "coordinates": [
          103.8198,
          1.3521
        ]
      },
      "properties": {
        "city": "Singapore",
        "country": "Singapore",
        "population": 5850000
      }
    },
    {
      "type": "Feature",
      "geometry": {
        "type": "Point",
        "coordinates": [
          13.405,
          52.52
        ]
      },
      "properties": {
        "city": "Berlin",
        "country": "Germany",
        "population": 3769000
      }
    },
    {
      "type": "Feature",
      "geometry": {
        "type": "Point",
        "coordinates": [
          12.4964,
          41.9028
        ]
      },
      "properties": {
        "city": "Rome",
        "country": "Italy",
        "population": 2873000
      }
    },
    {
      "type": "Feature",
      "geometry": {
        "type": "Point",
        "coordinates": [
          16.3738,
          48.2082
        ]
      },
      "properties": {
        "city": "Vienna",
        "country": "Austria",
        "population": 1911000
      }
    },
    {
      "type": "Feature",
      "geometry": {
        "type": "Point",
        "coordinates": [
          8.5417,
          47.3769
        ]
      },
      "properties": {
        "city": "Zurich",
        "country": "Switzerland",
        "population": 434000
      }
    },
    {
      "type": "Feature",
      "geometry": {
        "type": "Point",
        "coordinates": [
          18.0686,
          59.3293
        ]
      },
      "properties": {
        "city": "Stockholm",
        "country": "Sweden",
        "population": 975000
      }
    },
    {
      "type": "Feature",
      "geometry": {
        "type": "Point",
        "coordinates": [
          10.7522,
          59.9139
        ]
      },
      "properties": {
        "city": "Oslo",
        "country": "Norway",
        "population": 697000
      }
    },
    {
      "type": "Feature",
      "geometry": {
        "type": "Point",
        "coordinates": [
          24.9384,
          60.1699
        ]
      },
      "properties": {
        "city": "Helsinki",
        "country": "Finland",
        "population": 656000
      }
    },
    {
      "type": "Feature",
      "geometry": {
        "type": "Point",
        "coordinates": [
          12.5683,
          55.6761
        ]
      },
      "properties": {
        "city": "Copenhagen",
        "country": "Denmark",
        "population": 805000
      }
    },
    {
      "type": "Feature",
      "geometry": {
        "type": "Point",
        "coordinates": [
          -6.2603,
          53.3498
        ]
      },
      "properties": {
        "city": "Dublin",
        "country": "Ireland",
        "population": 1173000
      }
    },
    {
      "type": "Feature",
      "geometry": {
        "type": "Point",
        "coordinates": [
          -9.1393,
          38.7223
        ]
      },
      "properties": {
        "city": "Lisbon",
        "country": "Portugal",
        "population": 504000
      }
    },
    {
      "type": "Feature",
      "geometry": {
        "type": "Point",
        "coordinates": [
          23.7275,
          37.9838
        ]
      },
      "properties": {
        "city": "Athens",
        "country": "Greece",
        "population": 664000
      }
    },
    {
      "type": "Feature",
      "geometry": {
        "type": "Point",
        "coordinates": [
          4.3517,
          50.8503
        ]
      },
      "properties": {
        "city": "Brussels",
        "country": "Belgium",
        "population": 1210000
      }
    },
    {
      "type": "Feature",
      "geometry": {
        "type": "Point",
        "coordinates": [
          4.9041,
          52.3676
        ]
      },
      "properties": {
        "city": "Amsterdam",
        "country": "Netherlands",
        "population": 872000
      }
    },
    {
      "type": "Feature",
      "geometry": {
        "type": "Point",
        "coordinates": [
          14.4378,
          50.0755
        ]
      },
      "properties": {
        "city": "Prague",
        "country": "Czech Republic",
        "population": 1335000
      }
    },
    {
      "type": "Feature",
      "geometry": {
        "type": "Point",
        "coordinates": [
          19.0402,
          47.4979
        ]
      },
      "properties": {
        "city": "Budapest",
        "country": "Hungary",
        "population": 1756000
      }
    },
    {
      "type": "Feature",
      "geometry": {
        "type": "Point",
        "coordinates": [
          21.0122,
          52.2297
        ]
      },
      "properties": {
        "city": "Warsaw",
        "country": "Poland",
        "population": 1794000
      }
    },
    {
      "type": "Feature",
      "geometry": {
        "type": "Point",
        "coordinates": [
          11.582,
          48.1351
        ]
      },
      "properties": {
        "city": "Munich",
        "country": "Germany",
        "population": 1472000
      }
    },
    {
      "type": "Feature",
      "geometry": {
        "type": "Point",
        "coordinates": [
          9.9937,
          53.5511
        ]
      },
      "properties": {
        "city": "Hamburg",
        "country": "Germany",
        "population": 1841000
      }
    },
    {
      "type": "Feature",
      "geometry": {
        "type": "Point",
        "coordinates": [
          2.1734,
          41.3851
        ]
      },
      "properties": {
        "city": "Barcelona",
        "country": "Spain",
        "population": 5586000
      }
    }
  ]
}
